{
  "version": 1,
  "mapUrl": "https://kylepalmer64-ai.github.io/festival-packs/balstockmap.png",
  "heroImage": "https://kylepalmer64-ai.github.io/festival-packs/balstockgee.png",
  "messagesFile": "balstock_messages.json",

  "listings": [
    { "stage": "High Street Main Stage", "time": "17:00", "act": "Burlesque Showcase" },

    { "stage": "High Street Main Stage", "time": "17:30", "act": "Band F1" },
    { "stage": "The Orange Tree", "time": "17:30", "act": "Band O1" },
    { "stage": "The Engine", "time": "17:30", "act": "Band E1" },

    { "stage": "High Street Main Stage", "time": "18:00", "act": "Band F2" },
    { "stage": "The Orange Tree", "time": "18:00", "act": "Band O2" },
    { "stage": "The Engine", "time": "18:00", "act": "Band E2" },

    { "stage": "High Street Main Stage", "time": "18:30", "act": "Band F3" },
    { "stage": "The Orange Tree", "time": "18:30", "act": "Band O3" },
    { "stage": "The Engine", "time": "18:30", "act": "Band E3" },

    { "stage": "High Street Main Stage", "time": "19:00", "act": "Band F4" },
    { "stage": "The Orange Tree", "time": "19:00", "act": "Band O4" },
    { "stage": "The Engine", "time": "19:00", "act": "Band E4" },

    { "stage": "High Street Main Stage", "time": "19:30", "act": "Band F5" },
    { "stage": "The Orange Tree", "time": "19:30", "act": "Band O5" },
    { "stage": "The Engine", "time": "19:30", "act": "Band E5" },

    { "stage": "High Street Main Stage", "time": "20:00", "act": "Band F6" },
    { "stage": "The Orange Tree", "time": "20:00", "act": "Band O6" },
    { "stage": "The Engine", "time": "20:00", "act": "Band E6" },

    { "stage": "High Street Main Stage", "time": "12:00", "act": "Band S1" },
    { "stage": "The Orange Tree", "time": "12:00", "act": "Band S2" },
    { "stage": "The Engine", "time": "12:00", "act": "Band S3" },
    { "stage": "The White Lion", "time": "12:00", "act": "Band S4" },

    { "stage": "High Street Main Stage", "time": "12:30", "act": "Band S5" },
    { "stage": "The Orange Tree", "time": "12:30", "act": "Band S6" },
    { "stage": "The Engine", "time": "12:30", "act": "Band S7" },
    { "stage": "The White Lion", "time": "12:30", "act": "Band S8" },

    { "stage": "High Street Main Stage", "time": "13:00", "act": "Band S9" },
    { "stage": "The Orange Tree", "time": "13:00", "act": "Band S10" },
    { "stage": "The Engine", "time": "13:00", "act": "Band S11" },
    { "stage": "The White Lion", "time": "13:00", "act": "Band S12" },

    { "stage": "High Street Main Stage", "time": "23:00", "act": "Saturday Headliner" },
    { "stage": "The Orange Tree", "time": "23:00", "act": "Late Band OT" },
    { "stage": "The Engine", "time": "23:00", "act": "Late Band EN" },

    { "stage": "High Street Main Stage", "time": "12:00", "act": "Band U1" },
    { "stage": "The Orange Tree", "time": "12:00", "act": "Band U2" },
    { "stage": "The Engine", "time": "12:00", "act": "Band U3" },
    { "stage": "The White Lion", "time": "12:00", "act": "Band U4" }
  ],

  "vendors": [
    { "name": "High Street Main Stage", "lat": 51.98710, "lng": -0.18790, "category": "stage" },
    { "name": "The Orange Tree", "lat": 51.98655, "lng": -0.18840, "category": "stage" },
    { "name": "The Engine", "lat": 51.98620, "lng": -0.18910, "category": "stage" },
    { "name": "The White Lion", "lat": 51.98685, "lng": -0.18695, "category": "stage" },

    { "name": "Main Bar (High Street)", "lat": 51.98700, "lng": -0.18760, "category": "bar" },
    { "name": "Food Court High Street", "lat": 51.98690, "lng": -0.18810, "category": "food" },

    { "name": "Toilets – High Street", "lat": 51.98720, "lng": -0.18740, "category": "toilet" },
    { "name": "Toilets – Rec Ground", "lat": 51.98580, "lng": -0.18950, "category": "toilet" },

    { "name": "Medical Point", "lat": 51.98675, "lng": -0.18870, "category": "medical" },
    { "name": "Security HQ", "lat": 51.98695, "lng": -0.18720, "category": "security" },

    { "name": "Main Entrance (Town)", "lat": 51.98740, "lng": -0.18710, "category": "entrance" },
    { "name": "Station Entrance", "lat": 51.98490, "lng": -0.19200, "category": "entrance" },

    { "name": "General Camping", "lat": 51.98550, "lng": -0.19020, "category": "camp" },

    {
      "name": "Sponsor – Local Brewery",
      "lat": 51.98660,
      "lng": -0.18780,
      "category": "bar",
      "partner": true,
      "icon": "burger.png"
    },
    {
      "name": "Sponsor – Local Street Food",
      "lat": 51.98630,
      "lng": -0.18890,
      "category": "food",
      "partner": true,
      "icon": "burger.png"
    }
  ]
}
