{
  "version": 4,

  "mapUrl": "https://kylepalmer64-ai.github.io/festival-packs/bsmap1.png",
  "heroImage": "https://kylepalmer64-ai.github.io/festival-packs/bshero.png",
  "panelWallpaper": "https://kylepalmer64-ai.github.io/festival-packs/bspanel.png",
  "premiumHeader": "On Site Must Haves!",
  "listingsHeader": "Set Times 🤘",
  "premiumTileColor": "#BB0000",
  "premiumTileBorder": "#BB0000",
  "panelColor": "#55222222",
  "messagesFile": "bs_messages.json",

  "categoryColors": {
    "stall": "#66040E",
    "stage": "#66040E",
    "wellbeing": "#00FF00",
    "market": "#8B00FF",
    "camping": "#228B22",
    "washroom": "#4DA6FF",
    "bar": "#00C2FF",
    "water": "#4DA6FF",
    "merch": "#FFAA00",
    "entrance": "#66040E",
    "security": "#333333",
    "medical": "#FF3333",
    "food": "#FF0000"
  },

  "listings": [
    { "stage": "Main Stage", "time": "12:00", "act": "TBA" },
    { "stage": "Second Stage", "time": "13:00", "act": "TBA" },
    { "stage": "New Blood Stage", "time": "14:00", "act": "TBA" }
  ],

  "vendors": [
    { "name": "Ronnie James DIO", "lat": 52.7460, "lng": -1.6280, "category": "stage", "icon": "bigtop.png" },
    { "name": "Sophie Lancaster", "lat": 52.7468, "lng": -1.6295, "category": "stage", "icon": "bigtop.png" },
    { "name": "New Blood", "lat": 52.7455, "lng": -1.6270, "category": "stage", "icon": "bigtop.png" },
    { "name": "EMP", "lat": 52.7455, "lng": -1.6270, "category": "stage", "icon": "bigtop.png" },

    { "name": "Washrooms - Main Arena", "lat": 52.7463, "lng": -1.6285, "category": "washroom" },
    { "name": "Washrooms - Camping", "lat": 52.7445, "lng": -1.6300, "category": "washroom" },

    { "name": "Food Court - Main Arena", "lat": 52.7462, "lng": -1.6278, "category": "food" },
    { "name": "Food Village - Camping", "lat": 52.7448, "lng": -1.6305, "category": "food" },

    { "name": "Security HQ - Main Entrance", "lat": 52.7458, "lng": -1.6310, "category": "security" },
    { "name": "Medical Tent", "lat": 52.7461, "lng": -1.6282, "category": "medical" },

    { "name": "Water Point North", "lat": 52.7466, "lng": -1.6290, "category": "water" },
    { "name": "Water Point South", "lat": 52.7450, "lng": -1.6296, "category": "water" },

    { "name": "Bar - Main Arena", "lat": 52.7464, "lng": -1.6283, "category": "bar" },
    { "name": "Serpent's Lair VIP", "lat": 52.7446, "lng": -1.6302, "category": "bar" },
    { "name": "Arena New Blood", "lat": 52.7446, "lng": -1.6302, "category": "bar" },
    { "name": "Arena Dio Left", "lat": 52.7446, "lng": -1.6302, "category": "bar" },
    { "name": "Arena Sophie", "lat": 52.7446, "lng": -1.6302, "category": "bar" },
    

    { "name": "Merch Tent", "lat": 52.7459, "lng": -1.6286, "category": "merch" },
    { "name": "Trading Village", "lat": 52.7457, "lng": -1.6288, "category": "market" },

    { "name": "Luxury", "lat": 52.7440, "lng": -1.6310, "category": "camping" },
    { "name": "Serpent's Lair", "lat": 52.7440, "lng": -1.6310, "category": "camping", "icon": "serphero.png" },
    { "name": "Niflheim", "lat": 52.7440, "lng": -1.6310, "category": "camping", "icon": "nihero.png" },
    { "name": "Valahalla", "lat": 52.7440, "lng": -1.6310, "category": "camping", "icon": "valhero.png" },
    { "name": "Ironwood", "lat": 52.7440, "lng": -1.6310, "category": "camping", "icon": "irhero.png" },
    { "name": "Jutenheim", "lat": 52.7440, "lng": -1.6310, "category": "camping", "icon": "juhero.png" },
    { "name": "Ragnarok", "lat": 52.7440, "lng": -1.6310, "category": "camping", "icon": "raghero.png" },
    { "name": "Vanaheim", "lat": 52.7440, "lng": -1.6310, "category": "camping", "icon": "vanhero.png" },
    { "name": "Kyrr (quiet)", "lat": 52.7440, "lng": -1.6310, "category": "camping", "icon": "kyhero.png" },
    { "name": "Asgard", "lat": 52.7440, "lng": -1.6310, "category": "camping", "icon": "ashero.png", "icon": "luhero.png" },

    { "name": "Main Entrance", "lat": 52.7458, "lng": -1.6312, "category": "entrance" },
    { "name": "Arena Entrance", "lat": 52.7438, "lng": -1.6315, "category": "entrance" },
  
    {
      "name": "DRAGONS HOARD",
      "lat": 52.8269,
      "lng": -1.3733,
      "category": "stall",
      "partner": true,
      "icon": "dhoard.png",
      "url": "https://dragonshoardbm.co/"
    },
    {
      "name": "FAT FRANK'S CAMPING SHOP",
      "lat": 52.8287,
      "lng": -1.3875,
      "category": "stall",
      "partner": true,
      "icon": "ffhero.png",
      "url": "https://www.fatfrankscampingshop.com/click-and-collect/"
    },
    { "name": "SCARLET IN CHAINS", "lat": 52.8240, "lng": -1.3707, "category": "stall", "icon": "sichero.png", "partner": true, "url": "https://www.instagram.com/scarletinchains/" },
    { "name": "MALL OF DEATH", "lat": 52.8318, "lng": -1.3868, "category": "stall", "icon": "modhero.png", "partner": true, "url": "https://www.facebook.com/mallofdeath2025/" },
    { "name": "RANV'S RASOI", "lat": 52.8260, "lng": -1.3716, "category": "food", "icon": "rnvhero.png", "partner": true, "url": "https://www.instagram.com/ranvsrasoi/" },
    { "name": "FESTIVAL SAMARITANS (24hr)", "lat": 52.8299, "lng": -1.3892, "category": "wellbeing", "icon": "samhero.png", "partner": true, "url": "https://www.samaritans.org/branches/festival-branch/" },
    {
      "name": "FESTPOD",
      "lat": 52.8287,
      "lng": -1.3875,
      "category": "stage",
      "icon": "fphero.png",
      "partner": true,
      "url": "https://festpod.co.uk/"
    }
  ]
}
