{
  "version": 4,
  "mapUrl": "https://kylepalmer64-ai.github.io/festival-packs/hitchmap.png",
  "heroImage": "https://kylepalmer64-ai.github.io/festival-packs/bdkhero.png",
  "panelWallpaper": "https://kylepalmer64-ai.github.io/festival-packs/defaultmap2.png",
  "premiumHeader": "Baldock Town",
  "listingsHeader": "Live & Local",
  "premiumTileColor": "#89CFF0",
  "premiumTileBorder": "#D4AF37",
  "panelColor": "#331010EE",
  "messagesFile": "kteepee_messages.json",

  "categoryColors": {
    "Hen 'n' Chickens": "#8F7D4E",
    "The Cock": "#314A43",
    "Orange Tree": "#BE6800",
    "White Lion": "#5D5D5D",
    "White Horse": "#00608B",
    "The Victoria": "#55342B ",
    "Keep Up To Date": "#89CFF0"
  },

  "categoryIcons": {
    "The Cock": "chkero2.png",
    "Orange Tree": "ojhero.png",
    "The Victoria": "vicbhero.png",
    "white horse": "owlhero.png",
    "white lion": "wlhero.png",
    "hen 'n' chickens": "hnchero.png"
  },

  "listings": [
    
    {"stage": "Old White Horse", "time": "12:00", "act": "Hot Wing Challenge!", "day": "Wed Jul 22nd" },

    {"stage": "The Orange Tree", "time": "16:00", "act": "Vinyl Sundays Guest DJ", "day": "Sun Jul 26th" },

    {"stage": "Old White Horse", "time": "12:00", "act": "Penalty Shootout - Family Day", "day": "Sat Aug 1st" },

    {"stage": "Old White Horse", "time": "12:00", "act": "Big DnB DJ Day!", "day": "Wed Aug 29th" }
  ],

  "vendors": [
    
    { "name": "Website", "lat": 52.7460, "lng": -1.6280, "category": "Hen 'n' Chickens", "icon": "hnchero.png", "url": "https://www.thehenandchickens.co.uk/" },
    { "name": "We're Here", "lat": 51.9860, "lng": -0.1796 , "category": "Hen 'n' Chickens", "icon": "hnchero.png" },
    
    { "name": "Follow Us!", "lat": 52.7460, "lng": -1.6280, "category": "White Lion", "icon": "fbhero.png", "url": "https://www.facebook.com/whitelion.baldock/" },
    { "name": "Website", "lat": 52.7460, "lng": -1.6280, "category": "White Lion", "icon": "wlhero.png", "url": "https://thewhitelionbaldock.co.uk/" },
    { "name": "We're Here", "lat": 51.9877, "lng": -0.1871, "category": "White Lion", "icon": "wlhero.png", "url": "https://www.facebook.com/whitelion.baldock/" },
      
    { "name": "Follow Us!", "lat": 52.7460, "lng": -1.6280, "category": "The Victoria", "icon": "fbhero.png", "url": "https://www.facebook.com/The.Victoria.Baldock/" },
    { "name": "We're Here", "lat": 51.9901, "lng": -0.1885, "category": "The Victoria", "icon": "vicbhero.png" },

    
    { "name": "Follow Us!", "lat": 52.7460, "lng": -1.6280, "category": "White Horse", "icon": "fbhero.png", "url": "https://www.facebook.com/oldwhitehorse/" },
    { "name": "Donate MS Trust", "lat": 52.7460, "lng": -1.6280, "category": "White Horse", "icon": "owlhero.png", "url": "https://www.justgiving.com/page/owh-ms-trust/" },
    { "name": "Donate Herts Homeless", "lat": 52.7460, "lng": -1.6280, "category": "White Horse", "icon": "owlhero.png", "url": "https://www.justgiving.com/page/owh-herts-homeless/" },
    { "name": "Donate Garden Hospice", "lat": 52.7460, "lng": -1.6280, "category": "White Horse", "icon": "owlhero.png", "url": "https://www.justgiving.com/page/owh-garden-hospice/" },
    { "name": "Website", "lat": 52.7460, "lng": -1.6280, "category": "White Horse", "icon": "owlhero.png", "url": "https://oldwhitehorsebaldock.co.uk/" },
    { "name": "We're Here", "lat": 51.9914, "lng": -0.1867, "category": "White Horse", "icon": "owlhero.png" },

    
    { "name": "Follow Us!", "lat": 52.7460, "lng": -1.6280, "category": "Orange Tree", "icon": "fbhero.png", "url": "https://www.facebook.com/The.Orange.Tree.Baldock/" },
    { "name": "Website", "lat": 52.7460, "lng": -1.6280, "category": "Orange Tree", "icon": "ojhero.png", "url": "https://www.theorangetreebaldock.com/" },
    { "name": "We're Here", "lat": 51.9907, "lng": -0.1929, "category": "Orange Tree", "icon": "ojhero.png" },

    
    { "name": "Follow Us!", "lat": 52.7460, "lng": -1.6280, "category": "The Cock", "icon": "fbhero.png", "url": "https://www.facebook.com/The.Cock.Baldock" },
    { "name": "We're Here", "lat": 51.9872, "lng": -0.1860, "category": "The Cock", "icon": "chkero2.png" },

    { "name": "KteePee", "lat": 52.8299, "lng": -1.3892, "category": "Keep Up To Date", "icon": "kteepee.png", "url": "https://www.kteepee.com/" },
    { "name": "Facebook", "lat": 52.8318, "lng": -1.3868, "category": "Keep Up To Date", "icon": "fbhero.png", "url": "https://www.facebook.com/KteePeeEvents" },
    { "name": "Insta", "lat": 52.8240, "lng": -1.3707, "category": "Keep Up To Date", "icon": "inhero.png", "url": "https://www.instagram.com/kteepee.events/" }
    
  ]
}
